{
    "type": "FeatureCollection",
    "features": [
        {
            "type": "Feature",
            "geometry": {
                "type": "Point",
                "coordinates": [
                    55.817904163579,
                    58.061467612291
                ]
            },
            "properties": {
                "lat": "58.061467612291",
                "lon": "55.817904163579",
                "name": "Мясокомбинат",
                "img": "/img/map-lime.png"
            }
        },
        {
            "type": "Feature",
            "geometry": {
                "type": "Point",
                "coordinates": [
                    55.745398149077,
                    58.084395616877
                ]
            },
            "properties": {
                "lat": "58.084395616877",
                "lon": "55.745398149077",
                "name": "Техникум",
                "img": "/img/map-lime.png"
            }
        },
        {
            "type": "Feature",
            "geometry": {
                "type": "Point",
                "coordinates": [
                    55.786205157239,
                    58.082845616567
                ]
            },
            "properties": {
                "lat": "58.082845616567",
                "lon": "55.786205157239",
                "name": "Макаронная фабрика",
                "img": "/img/map-lime.png"
            }
        },
        {
            "type": "Feature",
            "geometry": {
                "type": "Point",
                "coordinates": [
                    55.783295156657,
                    58.087875617573
                ]
            },
            "properties": {
                "lat": "58.087875617573",
                "lon": "55.783295156657",
                "name": "Магазин Рива",
                "img": "/img/map-lime.png"
            }
        },
        {
            "type": "Feature",
            "geometry": {
                "type": "Point",
                "coordinates": [
                    55.772724154543,
                    58.087440617486
                ]
            },
            "properties": {
                "lat": "58.087440617486",
                "lon": "55.772724154543",
                "name": "Магазин Элита",
                "img": "/img/map-lime.png"
            }
        },
        {
            "type": "Feature",
            "geometry": {
                "type": "Point",
                "coordinates": [
                    55.768039153606,
                    58.085831617164
                ]
            },
            "properties": {
                "lat": "58.085831617164",
                "lon": "55.768039153606",
                "name": "Магазин Ангор",
                "img": "/img/map-lime.png"
            }
        },
        {
            "type": "Feature",
            "geometry": {
                "type": "Point",
                "coordinates": [
                    55.753154150629,
                    58.086940617386
                ]
            },
            "properties": {
                "lat": "58.086940617386",
                "lon": "55.753154150629",
                "name": "Поликлиника",
                "img": "/img/map-lime.png"
            }
        },
        {
            "type": "Feature",
            "geometry": {
                "type": "Point",
                "coordinates": [
                    55.804346160867,
                    58.06156361231
                ]
            },
            "properties": {
                "lat": "58.06156361231",
                "lon": "55.804346160867",
                "name": "Микрорайон Рейд",
                "img": "/img/map-lime.png"
            }
        },
        {
            "type": "Feature",
            "geometry": {
                "type": "Point",
                "coordinates": [
                    55.753245150647,
                    58.085625617123
                ]
            },
            "properties": {
                "lat": "58.085625617123",
                "lon": "55.753245150647",
                "name": "Карла Маркса",
                "img": "/img/map-lime.png"
            }
        },
        {
            "type": "Feature",
            "geometry": {
                "type": "Point",
                "coordinates": [
                    55.742419148482,
                    58.07716261543
                ]
            },
            "properties": {
                "lat": "58.07716261543",
                "lon": "55.742419148482",
                "name": "Фабрика Гознак",
                "img": "/img/map-lime.png"
            }
        },
        {
            "type": "Feature",
            "geometry": {
                "type": "Point",
                "coordinates": [
                    55.731155146229,
                    58.076058615209
                ]
            },
            "properties": {
                "lat": "58.076058615209",
                "lon": "55.731155146229",
                "name": "Калинина",
                "img": "/img/map-lime.png"
            }
        },
        {
            "type": "Feature",
            "geometry": {
                "type": "Point",
                "coordinates": [
                    55.665203133038,
                    58.074673614932
                ]
            },
            "properties": {
                "lat": "58.074673614932",
                "lon": "55.665203133038",
                "name": "Школа Конец-Бор",
                "img": "/img/map-lime.png"
            }
        },
        {
            "type": "Feature",
            "geometry": {
                "type": "Point",
                "coordinates": [
                    55.642357128469,
                    58.067470613492
                ]
            },
            "properties": {
                "lat": "58.067470613492",
                "lon": "55.642357128469",
                "name": "Микрорайон Конец-Бор",
                "img": "/img/map-lime.png"
            }
        },
        {
            "type": "Feature",
            "geometry": {
                "type": "Point",
                "coordinates": [
                    55.660189132036,
                    58.072581614514
                ]
            },
            "properties": {
                "lat": "58.072581614514",
                "lon": "55.660189132036",
                "name": "Медпункт Конец-Бор",
                "img": "/img/map-lime.png"
            }
        },
        {
            "type": "Feature",
            "geometry": {
                "type": "Point",
                "coordinates": [
                    55.671823134362,
                    58.07686061537
                ]
            },
            "properties": {
                "lat": "58.07686061537",
                "lon": "55.671823134362",
                "name": "Отворот на Конец-Бор",
                "img": "/img/map-lime.png"
            }
        },
        {
            "type": "Feature",
            "geometry": {
                "type": "Point",
                "coordinates": [
                    55.68186313637,
                    58.075980615194
                ]
            },
            "properties": {
                "lat": "58.075980615194",
                "lon": "55.68186313637",
                "name": "Домики",
                "img": "/img/map-lime.png"
            }
        },
        {
            "type": "Feature",
            "geometry": {
                "type": "Point",
                "coordinates": [
                    55.699145139827,
                    58.07731061546
                ]
            },
            "properties": {
                "lat": "58.07731061546",
                "lon": "55.699145139827",
                "name": "Типографские домики",
                "img": "/img/map-lime.png"
            }
        },
        {
            "type": "Feature",
            "geometry": {
                "type": "Point",
                "coordinates": [
                    55.706037141205,
                    58.077971615592
                ]
            },
            "properties": {
                "lat": "58.077971615592",
                "lon": "55.706037141205",
                "name": "Лесозавод",
                "img": "/img/map-lime.png"
            }
        },
        {
            "type": "Feature",
            "geometry": {
                "type": "Point",
                "coordinates": [
                    55.711652142328,
                    58.077316615461
                ]
            },
            "properties": {
                "lat": "58.077316615461",
                "lon": "55.711652142328",
                "name": "МЖК Запальта",
                "img": "/img/map-lime.png"
            }
        },
        {
            "type": "Feature",
            "geometry": {
                "type": "Point",
                "coordinates": [
                    55.725165145031,
                    58.076357615269
                ]
            },
            "properties": {
                "lat": "58.076357615269",
                "lon": "55.725165145031",
                "name": "Храм Святой Екатерины",
                "img": "/img/map-lime.png"
            }
        },
        {
            "type": "Feature",
            "geometry": {
                "type": "Point",
                "coordinates": [
                    55.763728152743,
                    58.080977616193
                ]
            },
            "properties": {
                "lat": "58.080977616193",
                "lon": "55.763728152743",
                "name": "Магазин Строймастер",
                "img": "/img/map-lime.png"
            }
        },
        {
            "type": "Feature",
            "geometry": {
                "type": "Point",
                "coordinates": [
                    55.800897160177,
                    58.071281614254
                ]
            },
            "properties": {
                "lat": "58.071281614254",
                "lon": "55.800897160177",
                "name": "Дом культуры Нефтяник",
                "img": "/img/map-lime.png"
            }
        },
        {
            "type": "Feature",
            "geometry": {
                "type": "Point",
                "coordinates": [
                    55.791302158258,
                    58.074620614922
                ]
            },
            "properties": {
                "lat": "58.074620614922",
                "lon": "55.791302158258",
                "name": "Магазин №23",
                "img": "/img/map-lime.png"
            }
        },
        {
            "type": "Feature",
            "geometry": {
                "type": "Point",
                "coordinates": [
                    55.786173157232,
                    58.079286615855
                ]
            },
            "properties": {
                "lat": "58.079286615855",
                "lon": "55.786173157232",
                "name": "Пермский завод грузовой техники",
                "img": "/img/map-lime.png"
            }
        },
        {
            "type": "Feature",
            "geometry": {
                "type": "Point",
                "coordinates": [
                    55.758334151665,
                    58.08111261622
                ]
            },
            "properties": {
                "lat": "58.08111261622",
                "lon": "55.758334151665",
                "name": "Торговый центр Добрыня",
                "img": "/img/map-lime.png"
            }
        },
        {
            "type": "Feature",
            "geometry": {
                "type": "Point",
                "coordinates": [
                    55.797246159447,
                    58.068816613761
                ]
            },
            "properties": {
                "lat": "58.068816613761",
                "lon": "55.797246159447",
                "name": "Магазин Нина",
                "img": "/img/map-lime.png"
            }
        },
        {
            "type": "Feature",
            "geometry": {
                "type": "Point",
                "coordinates": [
                    55.768164153631,
                    58.083041616606
                ]
            },
            "properties": {
                "lat": "58.083041616606",
                "lon": "55.768164153631",
                "name": "Горсеть",
                "img": "/img/map-lime.png"
            }
        },
        {
            "type": "Feature",
            "geometry": {
                "type": "Point",
                "coordinates": [
                    55.735947147187,
                    58.07821261564
                ]
            },
            "properties": {
                "lat": "58.07821261564",
                "lon": "55.735947147187",
                "name": "пл. Гознака",
                "img": "/img/map-lime.png"
            }
        },
        {
            "type": "Feature",
            "geometry": {
                "type": "Point",
                "coordinates": [
                    55.752939150586,
                    58.077089615416
                ]
            },
            "properties": {
                "lat": "58.077089615416",
                "lon": "55.752939150586",
                "name": "ЦБК Кама",
                "img": "/img/map-lime.png"
            }
        },
        {
            "type": "Feature",
            "geometry": {
                "type": "Point",
                "coordinates": [
                    55.750238150045,
                    58.079873615972
                ]
            },
            "properties": {
                "lat": "58.079873615972",
                "lon": "55.750238150045",
                "name": "Почта",
                "img": "/img/map-lime.png"
            }
        },
        {
            "type": "Feature",
            "geometry": {
                "type": "Point",
                "coordinates": [
                    55.653170130632,
                    58.070064614011
                ]
            },
            "properties": {
                "lat": "58.070064614011",
                "lon": "55.653170130632",
                "name": "По требованию (ул. Тепличная)",
                "img": "/img/map-lime.png"
            }
        },
        {
            "type": "Feature",
            "geometry": {
                "type": "Point",
                "coordinates": [
                    55.756370151272,
                    58.082855616569
                ]
            },
            "properties": {
                "lat": "58.082855616569",
                "lon": "55.756370151272",
                "name": "Торговый центр Парк",
                "img": "/img/map-lime.png"
            }
        },
        {
            "type": "Feature",
            "geometry": {
                "type": "Point",
                "coordinates": [
                    55.68911113782,
                    58.076265615251
                ]
            },
            "properties": {
                "lat": "58.076265615251",
                "lon": "55.68911113782",
                "name": "Домики (по требованию)",
                "img": "/img/map-lime.png"
            }
        },
        {
            "type": "Feature",
            "geometry": {
                "type": "Point",
                "coordinates": [
                    55.817904163579,
                    58.061467612291
                ]
            },
            "properties": {
                "lat": "58.061467612291",
                "lon": "55.817904163579",
                "name": "Мясокомбинат",
                "img": "/img/map-red.png"
            }
        },
        {
            "type": "Feature",
            "geometry": {
                "type": "Point",
                "coordinates": [
                    55.745675149133,
                    58.084425616883
                ]
            },
            "properties": {
                "lat": "58.084425616883",
                "lon": "55.745675149133",
                "name": "Техникум",
                "img": "/img/map-red.png"
            }
        },
        {
            "type": "Feature",
            "geometry": {
                "type": "Point",
                "coordinates": [
                    55.736996147397,
                    58.078833615764
                ]
            },
            "properties": {
                "lat": "58.078833615764",
                "lon": "55.736996147397",
                "name": "пл. Гознака",
                "img": "/img/map-red.png"
            }
        },
        {
            "type": "Feature",
            "geometry": {
                "type": "Point",
                "coordinates": [
                    55.785856157169,
                    58.082830616564
                ]
            },
            "properties": {
                "lat": "58.082830616564",
                "lon": "55.785856157169",
                "name": "Макаронная фабрика",
                "img": "/img/map-red.png"
            }
        },
        {
            "type": "Feature",
            "geometry": {
                "type": "Point",
                "coordinates": [
                    55.783799156758,
                    58.087820617562
                ]
            },
            "properties": {
                "lat": "58.087820617562",
                "lon": "55.783799156758",
                "name": "Магазин Рива",
                "img": "/img/map-red.png"
            }
        },
        {
            "type": "Feature",
            "geometry": {
                "type": "Point",
                "coordinates": [
                    55.774038154805,
                    58.08766361753
                ]
            },
            "properties": {
                "lat": "58.08766361753",
                "lon": "55.774038154805",
                "name": "Магазин Элита",
                "img": "/img/map-red.png"
            }
        },
        {
            "type": "Feature",
            "geometry": {
                "type": "Point",
                "coordinates": [
                    55.770158154029,
                    58.086484617295
                ]
            },
            "properties": {
                "lat": "58.086484617295",
                "lon": "55.770158154029",
                "name": "Магазин Ангор",
                "img": "/img/map-red.png"
            }
        },
        {
            "type": "Feature",
            "geometry": {
                "type": "Point",
                "coordinates": [
                    55.804722160942,
                    58.061407612279
                ]
            },
            "properties": {
                "lat": "58.061407612279",
                "lon": "55.804722160942",
                "name": "Микрорайон Рейд",
                "img": "/img/map-red.png"
            }
        },
        {
            "type": "Feature",
            "geometry": {
                "type": "Point",
                "coordinates": [
                    55.753538150705,
                    58.085244617047
                ]
            },
            "properties": {
                "lat": "58.085244617047",
                "lon": "55.753538150705",
                "name": "Карла Маркса",
                "img": "/img/map-red.png"
            }
        },
        {
            "type": "Feature",
            "geometry": {
                "type": "Point",
                "coordinates": [
                    55.742335148465,
                    58.076620615322
                ]
            },
            "properties": {
                "lat": "58.076620615322",
                "lon": "55.742335148465",
                "name": "Фабрика Гознак",
                "img": "/img/map-red.png"
            }
        },
        {
            "type": "Feature",
            "geometry": {
                "type": "Point",
                "coordinates": [
                    55.73160914632,
                    58.075937615185
                ]
            },
            "properties": {
                "lat": "58.075937615185",
                "lon": "55.73160914632",
                "name": "Калинина",
                "img": "/img/map-red.png"
            }
        },
        {
            "type": "Feature",
            "geometry": {
                "type": "Point",
                "coordinates": [
                    55.665324133063,
                    58.074679614934
                ]
            },
            "properties": {
                "lat": "58.074679614934",
                "lon": "55.665324133063",
                "name": "Школа Конец-Бор",
                "img": "/img/map-red.png"
            }
        },
        {
            "type": "Feature",
            "geometry": {
                "type": "Point",
                "coordinates": [
                    55.642357128469,
                    58.067470613492
                ]
            },
            "properties": {
                "lat": "58.067470613492",
                "lon": "55.642357128469",
                "name": "Микрорайон Конец-Бор",
                "img": "/img/map-red.png"
            }
        },
        {
            "type": "Feature",
            "geometry": {
                "type": "Point",
                "coordinates": [
                    55.660508132099,
                    58.072664614531
                ]
            },
            "properties": {
                "lat": "58.072664614531",
                "lon": "55.660508132099",
                "name": "Медпункт Конец-Бор",
                "img": "/img/map-red.png"
            }
        },
        {
            "type": "Feature",
            "geometry": {
                "type": "Point",
                "coordinates": [
                    55.671244134247,
                    58.076999615398
                ]
            },
            "properties": {
                "lat": "58.076999615398",
                "lon": "55.671244134247",
                "name": "Отворот на Конец-Бор",
                "img": "/img/map-red.png"
            }
        },
        {
            "type": "Feature",
            "geometry": {
                "type": "Point",
                "coordinates": [
                    55.681031136204,
                    58.075878615173
                ]
            },
            "properties": {
                "lat": "58.075878615173",
                "lon": "55.681031136204",
                "name": "Домики",
                "img": "/img/map-red.png"
            }
        },
        {
            "type": "Feature",
            "geometry": {
                "type": "Point",
                "coordinates": [
                    55.699325139863,
                    58.077287615455
                ]
            },
            "properties": {
                "lat": "58.077287615455",
                "lon": "55.699325139863",
                "name": "Типографские домики",
                "img": "/img/map-red.png"
            }
        },
        {
            "type": "Feature",
            "geometry": {
                "type": "Point",
                "coordinates": [
                    55.706403141278,
                    58.077897615577
                ]
            },
            "properties": {
                "lat": "58.077897615577",
                "lon": "55.706403141278",
                "name": "Лесозавод",
                "img": "/img/map-red.png"
            }
        },
        {
            "type": "Feature",
            "geometry": {
                "type": "Point",
                "coordinates": [
                    55.711078142213,
                    58.077327615463
                ]
            },
            "properties": {
                "lat": "58.077327615463",
                "lon": "55.711078142213",
                "name": "МЖК Запальта",
                "img": "/img/map-red.png"
            }
        },
        {
            "type": "Feature",
            "geometry": {
                "type": "Point",
                "coordinates": [
                    55.724441144886,
                    58.076340615266
                ]
            },
            "properties": {
                "lat": "58.076340615266",
                "lon": "55.724441144886",
                "name": "Храм Святой Екатерины",
                "img": "/img/map-red.png"
            }
        },
        {
            "type": "Feature",
            "geometry": {
                "type": "Point",
                "coordinates": [
                    55.751358150269,
                    58.086285617255
                ]
            },
            "properties": {
                "lat": "58.086285617255",
                "lon": "55.751358150269",
                "name": "Поликлиника",
                "img": "/img/map-red.png"
            }
        },
        {
            "type": "Feature",
            "geometry": {
                "type": "Point",
                "coordinates": [
                    55.764022152802,
                    58.080998616197
                ]
            },
            "properties": {
                "lat": "58.080998616197",
                "lon": "55.764022152802",
                "name": "Магазин Строймастер",
                "img": "/img/map-red.png"
            }
        },
        {
            "type": "Feature",
            "geometry": {
                "type": "Point",
                "coordinates": [
                    55.800696160137,
                    58.071203614238
                ]
            },
            "properties": {
                "lat": "58.071203614238",
                "lon": "55.800696160137",
                "name": "Дом культуры Нефтяник",
                "img": "/img/map-red.png"
            }
        },
        {
            "type": "Feature",
            "geometry": {
                "type": "Point",
                "coordinates": [
                    55.790789158156,
                    58.074570614912
                ]
            },
            "properties": {
                "lat": "58.074570614912",
                "lon": "55.790789158156",
                "name": "Магазин №23",
                "img": "/img/map-red.png"
            }
        },
        {
            "type": "Feature",
            "geometry": {
                "type": "Point",
                "coordinates": [
                    55.785891157176,
                    58.079451615888
                ]
            },
            "properties": {
                "lat": "58.079451615888",
                "lon": "55.785891157176",
                "name": "Пермский завод грузовой техники",
                "img": "/img/map-red.png"
            }
        },
        {
            "type": "Feature",
            "geometry": {
                "type": "Point",
                "coordinates": [
                    55.758776151753,
                    58.080598616117
                ]
            },
            "properties": {
                "lat": "58.080598616117",
                "lon": "55.758776151753",
                "name": "Торговый центр Добрыня",
                "img": "/img/map-red.png"
            }
        },
        {
            "type": "Feature",
            "geometry": {
                "type": "Point",
                "coordinates": [
                    55.797355159469,
                    58.068947613787
                ]
            },
            "properties": {
                "lat": "58.068947613787",
                "lon": "55.797355159469",
                "name": "Магазин Нина",
                "img": "/img/map-red.png"
            }
        },
        {
            "type": "Feature",
            "geometry": {
                "type": "Point",
                "coordinates": [
                    55.768466153691,
                    58.082937616585
                ]
            },
            "properties": {
                "lat": "58.082937616585",
                "lon": "55.768466153691",
                "name": "Горсеть",
                "img": "/img/map-red.png"
            }
        },
        {
            "type": "Feature",
            "geometry": {
                "type": "Point",
                "coordinates": [
                    55.753227150643,
                    58.077002615398
                ]
            },
            "properties": {
                "lat": "58.077002615398",
                "lon": "55.753227150643",
                "name": "ЦБК Кама",
                "img": "/img/map-red.png"
            }
        },
        {
            "type": "Feature",
            "geometry": {
                "type": "Point",
                "coordinates": [
                    55.750182150034,
                    58.079993615996
                ]
            },
            "properties": {
                "lat": "58.079993615996",
                "lon": "55.750182150034",
                "name": "Почта",
                "img": "/img/map-red.png"
            }
        },
        {
            "type": "Feature",
            "geometry": {
                "type": "Point",
                "coordinates": [
                    55.654147130827,
                    58.070284614055
                ]
            },
            "properties": {
                "lat": "58.070284614055",
                "lon": "55.654147130827",
                "name": "По требованию (ул. Тепличная)",
                "img": "/img/map-red.png"
            }
        },
        {
            "type": "Feature",
            "geometry": {
                "type": "Point",
                "coordinates": [
                    55.690450138088,
                    58.076225615243
                ]
            },
            "properties": {
                "lat": "58.076225615243",
                "lon": "55.690450138088",
                "name": "Домики (по требованию)",
                "img": "/img/map-red.png"
            }
        }
    ]
}