{
    "type": "FeatureCollection",
    "features": [
        {
            "type": "Feature",
            "geometry": {
                "type": "Point",
                "coordinates": [
                    56.217719243542,
                    58.028486605695
                ]
            },
            "properties": {
                "lat": "58.028486605695",
                "lon": "56.217719243542",
                "name": "Борцов Революции",
                "img": "/img/map-lime.png"
            }
        },
        {
            "type": "Feature",
            "geometry": {
                "type": "Point",
                "coordinates": [
                    56.198037239605,
                    58.035977607193
                ]
            },
            "properties": {
                "lat": "58.035977607193",
                "lon": "56.198037239605",
                "name": "Луговая",
                "img": "/img/map-lime.png"
            }
        },
        {
            "type": "Feature",
            "geometry": {
                "type": "Point",
                "coordinates": [
                    56.192126238423,
                    58.037891607576
                ]
            },
            "properties": {
                "lat": "58.037891607576",
                "lon": "56.192126238423",
                "name": "Замок в долине",
                "img": "/img/map-lime.png"
            }
        },
        {
            "type": "Feature",
            "geometry": {
                "type": "Point",
                "coordinates": [
                    56.048441209686,
                    58.04231160846
                ]
            },
            "properties": {
                "lat": "58.04231160846",
                "lon": "56.048441209686",
                "name": "Героя Лядова",
                "img": "/img/map-lime.png"
            }
        },
        {
            "type": "Feature",
            "geometry": {
                "type": "Point",
                "coordinates": [
                    56.030451206088,
                    58.03911160782
                ]
            },
            "properties": {
                "lat": "58.03911160782",
                "lon": "56.030451206088",
                "name": "Стадион Авангард",
                "img": "/img/map-lime.png"
            }
        },
        {
            "type": "Feature",
            "geometry": {
                "type": "Point",
                "coordinates": [
                    56.213181242634,
                    58.008340601666
                ]
            },
            "properties": {
                "lat": "58.008340601666",
                "lon": "56.213181242634",
                "name": "Драмтеатр (ул. Петропавловская)",
                "img": "/img/map-lime.png"
            }
        },
        {
            "type": "Feature",
            "geometry": {
                "type": "Point",
                "coordinates": [
                    56.185936237185,
                    58.043901608778
                ]
            },
            "properties": {
                "lat": "58.043901608778",
                "lon": "56.185936237185",
                "name": "Сосновый бор",
                "img": "/img/map-lime.png"
            }
        },
        {
            "type": "Feature",
            "geometry": {
                "type": "Point",
                "coordinates": [
                    55.817904163579,
                    58.061467612291
                ]
            },
            "properties": {
                "lat": "58.061467612291",
                "lon": "55.817904163579",
                "name": "Мясокомбинат",
                "img": "/img/map-lime.png"
            }
        },
        {
            "type": "Feature",
            "geometry": {
                "type": "Point",
                "coordinates": [
                    55.795145159027,
                    58.06741061348
                ]
            },
            "properties": {
                "lat": "58.06741061348",
                "lon": "55.795145159027",
                "name": "Заводской микрорайон",
                "img": "/img/map-lime.png"
            }
        },
        {
            "type": "Feature",
            "geometry": {
                "type": "Point",
                "coordinates": [
                    55.745398149077,
                    58.084395616877
                ]
            },
            "properties": {
                "lat": "58.084395616877",
                "lon": "55.745398149077",
                "name": "Техникум",
                "img": "/img/map-lime.png"
            }
        },
        {
            "type": "Feature",
            "geometry": {
                "type": "Point",
                "coordinates": [
                    55.786205157239,
                    58.082845616567
                ]
            },
            "properties": {
                "lat": "58.082845616567",
                "lon": "55.786205157239",
                "name": "Макаронная фабрика",
                "img": "/img/map-lime.png"
            }
        },
        {
            "type": "Feature",
            "geometry": {
                "type": "Point",
                "coordinates": [
                    55.783295156657,
                    58.087875617573
                ]
            },
            "properties": {
                "lat": "58.087875617573",
                "lon": "55.783295156657",
                "name": "Магазин Рива",
                "img": "/img/map-lime.png"
            }
        },
        {
            "type": "Feature",
            "geometry": {
                "type": "Point",
                "coordinates": [
                    55.772724154543,
                    58.087440617486
                ]
            },
            "properties": {
                "lat": "58.087440617486",
                "lon": "55.772724154543",
                "name": "Магазин Элита",
                "img": "/img/map-lime.png"
            }
        },
        {
            "type": "Feature",
            "geometry": {
                "type": "Point",
                "coordinates": [
                    55.768039153606,
                    58.085831617164
                ]
            },
            "properties": {
                "lat": "58.085831617164",
                "lon": "55.768039153606",
                "name": "Магазин Ангор",
                "img": "/img/map-lime.png"
            }
        },
        {
            "type": "Feature",
            "geometry": {
                "type": "Point",
                "coordinates": [
                    55.763843152766,
                    58.086393617276
                ]
            },
            "properties": {
                "lat": "58.086393617276",
                "lon": "55.763843152766",
                "name": "Лицей №32",
                "img": "/img/map-lime.png"
            }
        },
        {
            "type": "Feature",
            "geometry": {
                "type": "Point",
                "coordinates": [
                    55.756940151386,
                    58.088167617631
                ]
            },
            "properties": {
                "lat": "58.088167617631",
                "lon": "55.756940151386",
                "name": "Пушкина",
                "img": "/img/map-lime.png"
            }
        },
        {
            "type": "Feature",
            "geometry": {
                "type": "Point",
                "coordinates": [
                    55.753154150629,
                    58.086940617386
                ]
            },
            "properties": {
                "lat": "58.086940617386",
                "lon": "55.753154150629",
                "name": "Поликлиника",
                "img": "/img/map-lime.png"
            }
        },
        {
            "type": "Feature",
            "geometry": {
                "type": "Point",
                "coordinates": [
                    55.804346160867,
                    58.06156361231
                ]
            },
            "properties": {
                "lat": "58.06156361231",
                "lon": "55.804346160867",
                "name": "Микрорайон Рейд",
                "img": "/img/map-lime.png"
            }
        },
        {
            "type": "Feature",
            "geometry": {
                "type": "Point",
                "coordinates": [
                    55.843033168604,
                    58.058090611616
                ]
            },
            "properties": {
                "lat": "58.058090611616",
                "lon": "55.843033168604",
                "name": "д. Нагорная",
                "img": "/img/map-lime.png"
            }
        },
        {
            "type": "Feature",
            "geometry": {
                "type": "Point",
                "coordinates": [
                    55.742419148482,
                    58.07716261543
                ]
            },
            "properties": {
                "lat": "58.07716261543",
                "lon": "55.742419148482",
                "name": "Фабрика Гознак",
                "img": "/img/map-lime.png"
            }
        },
        {
            "type": "Feature",
            "geometry": {
                "type": "Point",
                "coordinates": [
                    55.731155146229,
                    58.076058615209
                ]
            },
            "properties": {
                "lat": "58.076058615209",
                "lon": "55.731155146229",
                "name": "Калинина",
                "img": "/img/map-lime.png"
            }
        },
        {
            "type": "Feature",
            "geometry": {
                "type": "Point",
                "coordinates": [
                    55.711652142328,
                    58.077316615461
                ]
            },
            "properties": {
                "lat": "58.077316615461",
                "lon": "55.711652142328",
                "name": "МЖК Запальта",
                "img": "/img/map-lime.png"
            }
        },
        {
            "type": "Feature",
            "geometry": {
                "type": "Point",
                "coordinates": [
                    55.725165145031,
                    58.076357615269
                ]
            },
            "properties": {
                "lat": "58.076357615269",
                "lon": "55.725165145031",
                "name": "Храм Святой Екатерины",
                "img": "/img/map-lime.png"
            }
        },
        {
            "type": "Feature",
            "geometry": {
                "type": "Point",
                "coordinates": [
                    55.741954148389,
                    58.080142616026
                ]
            },
            "properties": {
                "lat": "58.080142616026",
                "lon": "55.741954148389",
                "name": "Магазин Мастер",
                "img": "/img/map-lime.png"
            }
        },
        {
            "type": "Feature",
            "geometry": {
                "type": "Point",
                "coordinates": [
                    55.7470111494,
                    58.08176361635
                ]
            },
            "properties": {
                "lat": "58.08176361635",
                "lon": "55.7470111494",
                "name": "Магазин Виват",
                "img": "/img/map-lime.png"
            }
        },
        {
            "type": "Feature",
            "geometry": {
                "type": "Point",
                "coordinates": [
                    55.800897160177,
                    58.071281614254
                ]
            },
            "properties": {
                "lat": "58.071281614254",
                "lon": "55.800897160177",
                "name": "Дом культуры Нефтяник",
                "img": "/img/map-lime.png"
            }
        },
        {
            "type": "Feature",
            "geometry": {
                "type": "Point",
                "coordinates": [
                    55.791302158258,
                    58.074620614922
                ]
            },
            "properties": {
                "lat": "58.074620614922",
                "lon": "55.791302158258",
                "name": "Магазин №23",
                "img": "/img/map-lime.png"
            }
        },
        {
            "type": "Feature",
            "geometry": {
                "type": "Point",
                "coordinates": [
                    55.786173157232,
                    58.079286615855
                ]
            },
            "properties": {
                "lat": "58.079286615855",
                "lon": "55.786173157232",
                "name": "Пермский завод грузовой техники",
                "img": "/img/map-lime.png"
            }
        },
        {
            "type": "Feature",
            "geometry": {
                "type": "Point",
                "coordinates": [
                    55.797246159447,
                    58.068816613761
                ]
            },
            "properties": {
                "lat": "58.068816613761",
                "lon": "55.797246159447",
                "name": "Магазин Нина",
                "img": "/img/map-lime.png"
            }
        },
        {
            "type": "Feature",
            "geometry": {
                "type": "Point",
                "coordinates": [
                    55.735947147187,
                    58.07821261564
                ]
            },
            "properties": {
                "lat": "58.07821261564",
                "lon": "55.735947147187",
                "name": "пл. Гознака",
                "img": "/img/map-lime.png"
            }
        },
        {
            "type": "Feature",
            "geometry": {
                "type": "Point",
                "coordinates": [
                    56.224105244819,
                    58.014218602841
                ]
            },
            "properties": {
                "lat": "58.014218602841",
                "lon": "56.224105244819",
                "name": "Окулова",
                "img": "/img/map-lime.png"
            }
        },
        {
            "type": "Feature",
            "geometry": {
                "type": "Point",
                "coordinates": [
                    56.222535244505,
                    58.00996060199
                ]
            },
            "properties": {
                "lat": "58.00996060199",
                "lon": "56.222535244505",
                "name": "Попова (ул. Петропавловская)",
                "img": "/img/map-lime.png"
            }
        },
        {
            "type": "Feature",
            "geometry": {
                "type": "Point",
                "coordinates": [
                    56.185795237157,
                    58.04366260873
                ]
            },
            "properties": {
                "lat": "58.04366260873",
                "lon": "56.185795237157",
                "name": "Сосновый бор",
                "img": "/img/map-red.png"
            }
        },
        {
            "type": "Feature",
            "geometry": {
                "type": "Point",
                "coordinates": [
                    56.192570238512,
                    58.037589607516
                ]
            },
            "properties": {
                "lat": "58.037589607516",
                "lon": "56.192570238512",
                "name": "Замок в долине",
                "img": "/img/map-red.png"
            }
        },
        {
            "type": "Feature",
            "geometry": {
                "type": "Point",
                "coordinates": [
                    56.20095924019,
                    58.034873606972
                ]
            },
            "properties": {
                "lat": "58.034873606972",
                "lon": "56.20095924019",
                "name": "Луговая",
                "img": "/img/map-red.png"
            }
        },
        {
            "type": "Feature",
            "geometry": {
                "type": "Point",
                "coordinates": [
                    56.217565243511,
                    58.028239605646
                ]
            },
            "properties": {
                "lat": "58.028239605646",
                "lon": "56.217565243511",
                "name": "Борцов Революции",
                "img": "/img/map-red.png"
            }
        },
        {
            "type": "Feature",
            "geometry": {
                "type": "Point",
                "coordinates": [
                    56.033296206657,
                    58.039081607814
                ]
            },
            "properties": {
                "lat": "58.039081607814",
                "lon": "56.033296206657",
                "name": "Стадион Авангард",
                "img": "/img/map-red.png"
            }
        },
        {
            "type": "Feature",
            "geometry": {
                "type": "Point",
                "coordinates": [
                    56.049716209941,
                    58.042454608489
                ]
            },
            "properties": {
                "lat": "58.042454608489",
                "lon": "56.049716209941",
                "name": "Героя Лядова",
                "img": "/img/map-red.png"
            }
        },
        {
            "type": "Feature",
            "geometry": {
                "type": "Point",
                "coordinates": [
                    56.226432245284,
                    58.009968601991
                ]
            },
            "properties": {
                "lat": "58.009968601991",
                "lon": "56.226432245284",
                "name": "Попова (ул. Попова)",
                "img": "/img/map-red.png"
            }
        },
        {
            "type": "Feature",
            "geometry": {
                "type": "Point",
                "coordinates": [
                    56.21431124286,
                    58.007035601405
                ]
            },
            "properties": {
                "lat": "58.007035601405",
                "lon": "56.21431124286",
                "name": "Драмтеатр (ул. Ленина)",
                "img": "/img/map-red.png"
            }
        },
        {
            "type": "Feature",
            "geometry": {
                "type": "Point",
                "coordinates": [
                    56.22120924424,
                    58.008185601635
                ]
            },
            "properties": {
                "lat": "58.008185601635",
                "lon": "56.22120924424",
                "name": "Борчанинова (ул. Ленина)",
                "img": "/img/map-red.png"
            }
        },
        {
            "type": "Feature",
            "geometry": {
                "type": "Point",
                "coordinates": [
                    55.815514163101,
                    58.061127612223
                ]
            },
            "properties": {
                "lat": "58.061127612223",
                "lon": "55.815514163101",
                "name": "Мясокомбинат",
                "img": "/img/map-red.png"
            }
        },
        {
            "type": "Feature",
            "geometry": {
                "type": "Point",
                "coordinates": [
                    55.795203159038,
                    58.067265613451
                ]
            },
            "properties": {
                "lat": "58.067265613451",
                "lon": "55.795203159038",
                "name": "Заводской микрорайон",
                "img": "/img/map-red.png"
            }
        },
        {
            "type": "Feature",
            "geometry": {
                "type": "Point",
                "coordinates": [
                    55.745675149133,
                    58.084425616883
                ]
            },
            "properties": {
                "lat": "58.084425616883",
                "lon": "55.745675149133",
                "name": "Техникум",
                "img": "/img/map-red.png"
            }
        },
        {
            "type": "Feature",
            "geometry": {
                "type": "Point",
                "coordinates": [
                    55.736996147397,
                    58.078833615764
                ]
            },
            "properties": {
                "lat": "58.078833615764",
                "lon": "55.736996147397",
                "name": "пл. Гознака",
                "img": "/img/map-red.png"
            }
        },
        {
            "type": "Feature",
            "geometry": {
                "type": "Point",
                "coordinates": [
                    55.785856157169,
                    58.082830616564
                ]
            },
            "properties": {
                "lat": "58.082830616564",
                "lon": "55.785856157169",
                "name": "Макаронная фабрика",
                "img": "/img/map-red.png"
            }
        },
        {
            "type": "Feature",
            "geometry": {
                "type": "Point",
                "coordinates": [
                    55.783799156758,
                    58.087820617562
                ]
            },
            "properties": {
                "lat": "58.087820617562",
                "lon": "55.783799156758",
                "name": "Магазин Рива",
                "img": "/img/map-red.png"
            }
        },
        {
            "type": "Feature",
            "geometry": {
                "type": "Point",
                "coordinates": [
                    55.774038154805,
                    58.08766361753
                ]
            },
            "properties": {
                "lat": "58.08766361753",
                "lon": "55.774038154805",
                "name": "Магазин Элита",
                "img": "/img/map-red.png"
            }
        },
        {
            "type": "Feature",
            "geometry": {
                "type": "Point",
                "coordinates": [
                    55.770158154029,
                    58.086484617295
                ]
            },
            "properties": {
                "lat": "58.086484617295",
                "lon": "55.770158154029",
                "name": "Магазин Ангор",
                "img": "/img/map-red.png"
            }
        },
        {
            "type": "Feature",
            "geometry": {
                "type": "Point",
                "coordinates": [
                    55.762884152575,
                    58.087092617416
                ]
            },
            "properties": {
                "lat": "58.087092617416",
                "lon": "55.762884152575",
                "name": "Лицей №32",
                "img": "/img/map-red.png"
            }
        },
        {
            "type": "Feature",
            "geometry": {
                "type": "Point",
                "coordinates": [
                    55.75671015134,
                    58.088019617602
                ]
            },
            "properties": {
                "lat": "58.088019617602",
                "lon": "55.75671015134",
                "name": "Пушкина",
                "img": "/img/map-red.png"
            }
        },
        {
            "type": "Feature",
            "geometry": {
                "type": "Point",
                "coordinates": [
                    55.804722160942,
                    58.061407612279
                ]
            },
            "properties": {
                "lat": "58.061407612279",
                "lon": "55.804722160942",
                "name": "Микрорайон Рейд",
                "img": "/img/map-red.png"
            }
        },
        {
            "type": "Feature",
            "geometry": {
                "type": "Point",
                "coordinates": [
                    55.844685168935,
                    58.057489611496
                ]
            },
            "properties": {
                "lat": "58.057489611496",
                "lon": "55.844685168935",
                "name": "д. Нагорная",
                "img": "/img/map-red.png"
            }
        },
        {
            "type": "Feature",
            "geometry": {
                "type": "Point",
                "coordinates": [
                    55.742335148465,
                    58.076620615322
                ]
            },
            "properties": {
                "lat": "58.076620615322",
                "lon": "55.742335148465",
                "name": "Фабрика Гознак",
                "img": "/img/map-red.png"
            }
        },
        {
            "type": "Feature",
            "geometry": {
                "type": "Point",
                "coordinates": [
                    55.73160914632,
                    58.075937615185
                ]
            },
            "properties": {
                "lat": "58.075937615185",
                "lon": "55.73160914632",
                "name": "Калинина",
                "img": "/img/map-red.png"
            }
        },
        {
            "type": "Feature",
            "geometry": {
                "type": "Point",
                "coordinates": [
                    55.711078142213,
                    58.077327615463
                ]
            },
            "properties": {
                "lat": "58.077327615463",
                "lon": "55.711078142213",
                "name": "МЖК Запальта",
                "img": "/img/map-red.png"
            }
        },
        {
            "type": "Feature",
            "geometry": {
                "type": "Point",
                "coordinates": [
                    55.724441144886,
                    58.076340615266
                ]
            },
            "properties": {
                "lat": "58.076340615266",
                "lon": "55.724441144886",
                "name": "Храм Святой Екатерины",
                "img": "/img/map-red.png"
            }
        },
        {
            "type": "Feature",
            "geometry": {
                "type": "Point",
                "coordinates": [
                    55.751358150269,
                    58.086285617255
                ]
            },
            "properties": {
                "lat": "58.086285617255",
                "lon": "55.751358150269",
                "name": "Поликлиника",
                "img": "/img/map-red.png"
            }
        },
        {
            "type": "Feature",
            "geometry": {
                "type": "Point",
                "coordinates": [
                    55.741954148389,
                    58.080142616026
                ]
            },
            "properties": {
                "lat": "58.080142616026",
                "lon": "55.741954148389",
                "name": "Магазин Мастер",
                "img": "/img/map-red.png"
            }
        },
        {
            "type": "Feature",
            "geometry": {
                "type": "Point",
                "coordinates": [
                    55.7470111494,
                    58.08176361635
                ]
            },
            "properties": {
                "lat": "58.08176361635",
                "lon": "55.7470111494",
                "name": "Магазин Виват",
                "img": "/img/map-red.png"
            }
        },
        {
            "type": "Feature",
            "geometry": {
                "type": "Point",
                "coordinates": [
                    55.800696160137,
                    58.071203614238
                ]
            },
            "properties": {
                "lat": "58.071203614238",
                "lon": "55.800696160137",
                "name": "Дом культуры Нефтяник",
                "img": "/img/map-red.png"
            }
        },
        {
            "type": "Feature",
            "geometry": {
                "type": "Point",
                "coordinates": [
                    55.790789158156,
                    58.074570614912
                ]
            },
            "properties": {
                "lat": "58.074570614912",
                "lon": "55.790789158156",
                "name": "Магазин №23",
                "img": "/img/map-red.png"
            }
        },
        {
            "type": "Feature",
            "geometry": {
                "type": "Point",
                "coordinates": [
                    55.785891157176,
                    58.079451615888
                ]
            },
            "properties": {
                "lat": "58.079451615888",
                "lon": "55.785891157176",
                "name": "Пермский завод грузовой техники",
                "img": "/img/map-red.png"
            }
        },
        {
            "type": "Feature",
            "geometry": {
                "type": "Point",
                "coordinates": [
                    55.797355159469,
                    58.068947613787
                ]
            },
            "properties": {
                "lat": "58.068947613787",
                "lon": "55.797355159469",
                "name": "Магазин Нина",
                "img": "/img/map-red.png"
            }
        },
        {
            "type": "Feature",
            "geometry": {
                "type": "Point",
                "coordinates": [
                    56.223787244755,
                    58.014439602886
                ]
            },
            "properties": {
                "lat": "58.014439602886",
                "lon": "56.223787244755",
                "name": "Окулова",
                "img": "/img/map-red.png"
            }
        }
    ]
}